[{"street": {"number": 2479, "name": "Henry Street"}, "city": "Blessington", "state": "Wexford", "country": "Ireland", "postcode": 78276, "coordinates": {"latitude": "2.0565", "longitude": "95.2422"}, "timezone": {"offset": "+1:00", "description": "Brussels, Copenhagen, Madrid, Paris"}}, {"street": {"number": 6167, "name": "Gr\u00fcner Weg"}, "city": "Falkenberg/Elster", "state": "Th\u00fcringen", "country": "Germany", "postcode": 99553, "coordinates": {"latitude": "89.4367", "longitude": "135.6354"}, "timezone": {"offset": "+5:45", "description": "Kathmandu"}}, {"street": {"number": 5171, "name": "Karen Dr"}, "city": "Hobart", "state": "South Australia", "country": "Australia", "postcode": 2104, "coordinates": {"latitude": "3.9825", "longitude": "176.6213"}, "timezone": {"offset": "+6:00", "description": "Almaty, Dhaka, Colombo"}}, {"street": {"number": 4700, "name": "Camden Ave"}, "city": "Bathurst", "state": "Victoria", "country": "Australia", "postcode": 9156, "coordinates": {"latitude": "52.7455", "longitude": "6.1478"}, "timezone": {"offset": "-6:00", "description": "Central Time (US & Canada), Mexico City"}}, {"street": {"number": 1700, "name": "Rue de la Fontaine"}, "city": "Clermont-Ferrand", "state": "Haute-Garonne", "country": "France", "postcode": 88079, "coordinates": {"latitude": "-18.3929", "longitude": "-5.5054"}, "timezone": {"offset": "+3:00", "description": "Baghdad, Riyadh, Moscow, St. Petersburg"}}, {"street": {"number": 1335, "name": "Koopliedenweg"}, "city": "Nijnsel", "state": "Zeeland", "country": "Netherlands", "postcode": "7044 TR", "coordinates": {"latitude": "-1.8238", "longitude": "-38.6202"}, "timezone": {"offset": "-8:00", "description": "Pacific Time (US & Canada)"}}, {"street": {"number": 1720, "name": "Calle de Tetu\u00e1n"}, "city": "Santa Cruz de Tenerife", "state": "Regi\u00f3n de Murcia", "country": "Spain", "postcode": 80718, "coordinates": {"latitude": "-35.4549", "longitude": "149.0069"}, "timezone": {"offset": "+9:30", "description": "Adelaide, Darwin"}}, {"street": {"number": 6237, "name": "Ranganathan St"}, "city": "Phagwara", "state": "Chandigarh", "country": "India", "postcode": 14922, "coordinates": {"latitude": "73.3382", "longitude": "-15.8943"}, "timezone": {"offset": "0:00", "description": "Western Europe Time, London, Lisbon, Casablanca"}}, {"street": {"number": 1501, "name": "Necatibey Cd"}, "city": "Isparta", "state": "Manisa", "country": "Turkey", "postcode": 16009, "coordinates": {"latitude": "-20.3448", "longitude": "-114.4092"}, "timezone": {"offset": "-2:00", "description": "Mid-Atlantic"}}, {"street": {"number": 1925, "name": "Mockingbird Hill"}, "city": "Pueblo", "state": "Minnesota", "country": "United States", "postcode": 19658, "coordinates": {"latitude": "48.2435", "longitude": "-61.3271"}, "timezone": {"offset": "+10:00", "description": "Eastern Australia, Guam, Vladivostok"}}, {"street": {"number": 6589, "name": "Otavalankatu"}, "city": "M\u00e4ntyharju", "state": "Northern Ostrobothnia", "country": "Finland", "postcode": 19937, "coordinates": {"latitude": "-34.7592", "longitude": "3.3898"}, "timezone": {"offset": "-3:00", "description": "Brazil, Buenos Aires, Georgetown"}}, {"street": {"number": 2598, "name": "Marine Drive"}, "city": "Mahbubnagar", "state": "Uttarakhand", "country": "India", "postcode": 53149, "coordinates": {"latitude": "-51.9113", "longitude": "114.4710"}, "timezone": {"offset": "+10:00", "description": "Eastern Australia, Guam, Vladivostok"}}, {"street": {"number": 6016, "name": "Perif\u00e9rico Guerrero"}, "city": "Las Caba\u00f1as", "state": "Tabasco", "country": "Mexico", "postcode": 98752, "coordinates": {"latitude": "-8.3241", "longitude": "178.4076"}, "timezone": {"offset": "+3:30", "description": "Tehran"}}, {"street": {"number": 5259, "name": "\u0634\u0647\u06cc\u062f \u0647\u0645\u062a"}, "city": "\u0633\u06cc\u0631\u062c\u0627\u0646", "state": "\u0627\u0635\u0641\u0647\u0627\u0646", "country": "Iran", "postcode": 34782, "coordinates": {"latitude": "16.7985", "longitude": "-17.8406"}, "timezone": {"offset": "+7:00", "description": "Bangkok, Hanoi, Jakarta"}}, {"street": {"number": 1658, "name": "Abanoz Sk"}, "city": "Van", "state": "Ankara", "country": "Turkey", "postcode": 56709, "coordinates": {"latitude": "34.3307", "longitude": "10.0601"}, "timezone": {"offset": "+3:30", "description": "Tehran"}}, {"street": {"number": 150, "name": "Begoulieva"}, "city": "Rzhishchiv", "state": "Mikolayivska", "country": "Ukraine", "postcode": 43271, "coordinates": {"latitude": "-84.4183", "longitude": "153.8337"}, "timezone": {"offset": "+9:30", "description": "Adelaide, Darwin"}}, {"street": {"number": 5760, "name": "Hillcrest Rd"}, "city": "Hollywood", "state": "Utah", "country": "United States", "postcode": 81267, "coordinates": {"latitude": "-87.5972", "longitude": "-67.8460"}, "timezone": {"offset": "-2:00", "description": "Mid-Atlantic"}}, {"street": {"number": 9509, "name": "Eason Rd"}, "city": "North Las Vegas", "state": "Kentucky", "country": "United States", "postcode": 13710, "coordinates": {"latitude": "19.4308", "longitude": "-179.5970"}, "timezone": {"offset": "+5:45", "description": "Kathmandu"}}, {"street": {"number": 9944, "name": "Sampige Rd"}, "city": "Thoothukudi", "state": "Haryana", "country": "India", "postcode": 42901, "coordinates": {"latitude": "69.5493", "longitude": "178.1298"}, "timezone": {"offset": "+9:30", "description": "Adelaide, Darwin"}}, {"street": {"number": 7480, "name": "Rua Espirito Santo "}, "city": "Nova Igua\u00e7u", "state": "Cear\u00e1", "country": "Brazil", "postcode": 11096, "coordinates": {"latitude": "25.6881", "longitude": "-158.0529"}, "timezone": {"offset": "-12:00", "description": "Eniwetok, Kwajalein"}}, {"street": {"number": 617, "name": "\u0645\u0648\u062d\u062f \u062f\u0627\u0646\u0634"}, "city": "\u0628\u0627\u0628\u0644", "state": "\u06af\u0644\u0633\u062a\u0627\u0646", "country": "Iran", "postcode": 33662, "coordinates": {"latitude": "-76.0448", "longitude": "-30.8710"}, "timezone": {"offset": "+4:30", "description": "Kabul"}}, {"street": {"number": 5605, "name": "\u0633\u0628\u0644\u0627\u0646 \u062c\u0646\u0648\u0628\u06cc"}, "city": "\u0628\u0631\u0648\u062c\u0631\u062f", "state": "\u0627\u06cc\u0644\u0627\u0645", "country": "Iran", "postcode": 31205, "coordinates": {"latitude": "37.7832", "longitude": "71.6581"}, "timezone": {"offset": "+3:00", "description": "Baghdad, Riyadh, Moscow, St. Petersburg"}}, {"street": {"number": 9827, "name": "Great North Road"}, "city": "Christchurch", "state": "Manawatu-Wanganui", "country": "New Zealand", "postcode": 46873, "coordinates": {"latitude": "-26.6878", "longitude": "171.5018"}, "timezone": {"offset": "+3:00", "description": "Baghdad, Riyadh, Moscow, St. Petersburg"}}, {"street": {"number": 9635, "name": "Merkurvej"}, "city": "Sundby", "state": "Midtjylland", "country": "Denmark", "postcode": 56354, "coordinates": {"latitude": "-46.5562", "longitude": "83.7215"}, "timezone": {"offset": "+4:30", "description": "Kabul"}}, {"street": {"number": 657, "name": "Eje vial Lim\u00f3n"}, "city": "Adolfo Ruiz Cortines", "state": "Guerrero", "country": "Mexico", "postcode": 45641, "coordinates": {"latitude": "-17.2013", "longitude": "103.7542"}, "timezone": {"offset": "+5:45", "description": "Kathmandu"}}, {"street": {"number": 3733, "name": "Fairview Road"}, "city": "Swansea", "state": "Bedfordshire", "country": "United Kingdom", "postcode": "J23 9UA", "coordinates": {"latitude": "39.2967", "longitude": "-16.4718"}, "timezone": {"offset": "+5:45", "description": "Kathmandu"}}, {"street": {"number": 168, "name": "Roveruds gate"}, "city": "Fisk\u00e5bygd", "state": "Tr\u00f8ndelag", "country": "Norway", "postcode": "9612", "coordinates": {"latitude": "61.5039", "longitude": "-103.7195"}, "timezone": {"offset": "+1:00", "description": "Brussels, Copenhagen, Madrid, Paris"}}, {"street": {"number": 8014, "name": "Kazimar St"}, "city": "Buxar", "state": "Jharkhand", "country": "India", "postcode": 88955, "coordinates": {"latitude": "-84.2616", "longitude": "88.7761"}, "timezone": {"offset": "+4:00", "description": "Abu Dhabi, Muscat, Baku, Tbilisi"}}, {"street": {"number": 2339, "name": "Finkenweg"}, "city": "Radeburg", "state": "Saarland", "country": "Germany", "postcode": 40957, "coordinates": {"latitude": "42.4701", "longitude": "175.6639"}, "timezone": {"offset": "+3:30", "description": "Tehran"}}, {"street": {"number": 8089, "name": "\u0634\u0647\u06cc\u062f \u0645\u0637\u0647\u0631\u06cc"}, "city": "\u0634\u0647\u0631\u06cc\u0627\u0631", "state": "\u0641\u0627\u0631\u0633", "country": "Iran", "postcode": 22270, "coordinates": {"latitude": "-48.9780", "longitude": "-74.8831"}, "timezone": {"offset": "+6:00", "description": "Almaty, Dhaka, Colombo"}}, {"street": {"number": 2090, "name": "Abanoz Sk"}, "city": "K\u00fctahya", "state": "Tunceli", "country": "Turkey", "postcode": 66132, "coordinates": {"latitude": "-46.3659", "longitude": "74.8084"}, "timezone": {"offset": "-3:00", "description": "Brazil, Buenos Aires, Georgetown"}}, {"street": {"number": 1362, "name": "Tunal\u0131 Hilmi Cd"}, "city": "Burdur", "state": "Ni\u011fde", "country": "Turkey", "postcode": 71077, "coordinates": {"latitude": "-30.7274", "longitude": "116.7008"}, "timezone": {"offset": "+3:00", "description": "Baghdad, Riyadh, Moscow, St. Petersburg"}}, {"street": {"number": 8872, "name": "Harrison Ct"}, "city": "Waterbury", "state": "Arkansas", "country": "United States", "postcode": 31581, "coordinates": {"latitude": "5.9678", "longitude": "49.3395"}, "timezone": {"offset": "+6:00", "description": "Almaty, Dhaka, Colombo"}}, {"street": {"number": 998, "name": "Eichenweg"}, "city": "Hamminkeln", "state": "Th\u00fcringen", "country": "Germany", "postcode": 57977, "coordinates": {"latitude": "-73.4457", "longitude": "165.6729"}, "timezone": {"offset": "+4:30", "description": "Kabul"}}, {"street": {"number": 6328, "name": "Holmenkollveien"}, "city": "Stor\u00e5s", "state": "Buskerud", "country": "Norway", "postcode": "3225", "coordinates": {"latitude": "77.9826", "longitude": "-108.0198"}, "timezone": {"offset": "+8:00", "description": "Beijing, Perth, Singapore, Hong Kong"}}, {"street": {"number": 3690, "name": "Mint St"}, "city": "Ujjain", "state": "Uttarakhand", "country": "India", "postcode": 22329, "coordinates": {"latitude": "-37.8509", "longitude": "-41.8035"}, "timezone": {"offset": "+7:00", "description": "Bangkok, Hanoi, Jakarta"}}, {"street": {"number": 564, "name": "Country Club Rd"}, "city": "Tamworth", "state": "Northern Territory", "country": "Australia", "postcode": 4722, "coordinates": {"latitude": "18.3601", "longitude": "158.2308"}, "timezone": {"offset": "-9:00", "description": "Alaska"}}, {"street": {"number": 4128, "name": "H\u00f8jg\u00e5rdstoften"}, "city": "Amager", "state": "Sj\u00e6lland", "country": "Denmark", "postcode": 95658, "coordinates": {"latitude": "-10.6379", "longitude": "-37.3219"}, "timezone": {"offset": "0:00", "description": "Western Europe Time, London, Lisbon, Casablanca"}}, {"street": {"number": 7036, "name": "Calle de La Democracia"}, "city": "Logro\u00f1o", "state": "Asturias", "country": "Spain", "postcode": 29374, "coordinates": {"latitude": "80.9795", "longitude": "39.1145"}, "timezone": {"offset": "-1:00", "description": "Azores, Cape Verde Islands"}}, {"street": {"number": 5438, "name": "St. Catherine St"}, "city": "Chipman", "state": "Nova Scotia", "country": "Canada", "postcode": "S4A 2X1", "coordinates": {"latitude": "-50.6728", "longitude": "-8.9150"}, "timezone": {"offset": "+2:00", "description": "Kaliningrad, South Africa"}}, {"street": {"number": 4282, "name": "Camac St"}, "city": "Eluru", "state": "Uttarakhand", "country": "India", "postcode": 58781, "coordinates": {"latitude": "7.0124", "longitude": "176.4817"}, "timezone": {"offset": "-2:00", "description": "Mid-Atlantic"}}, {"street": {"number": 636, "name": "China Bazaar Rd"}, "city": "Adoni", "state": "Lakshadweep", "country": "India", "postcode": 26538, "coordinates": {"latitude": "55.1263", "longitude": "-122.1816"}, "timezone": {"offset": "+2:00", "description": "Kaliningrad, South Africa"}}, {"street": {"number": 9458, "name": "Great North Road"}, "city": "Dunedin", "state": "Manawatu-Wanganui", "country": "New Zealand", "postcode": 83197, "coordinates": {"latitude": "67.7688", "longitude": "17.1184"}, "timezone": {"offset": "-3:00", "description": "Brazil, Buenos Aires, Georgetown"}}, {"street": {"number": 6181, "name": "Prospect Rd"}, "city": "Mackay", "state": "South Australia", "country": "Australia", "postcode": 2173, "coordinates": {"latitude": "-11.0662", "longitude": "65.0291"}, "timezone": {"offset": "+8:00", "description": "Beijing, Perth, Singapore, Hong Kong"}}, {"street": {"number": 2882, "name": "Elgin St"}, "city": "Carleton", "state": "Northwest Territories", "country": "Canada", "postcode": "G3V 4G2", "coordinates": {"latitude": "6.5554", "longitude": "108.6988"}, "timezone": {"offset": "-6:00", "description": "Central Time (US & Canada), Mexico City"}}, {"street": {"number": 383, "name": "Bergstra\u00dfe"}, "city": "Wadern", "state": "Sachsen", "country": "Germany", "postcode": 87198, "coordinates": {"latitude": "-86.9769", "longitude": "75.0135"}, "timezone": {"offset": "-11:00", "description": "Midway Island, Samoa"}}, {"street": {"number": 6042, "name": "Pearse Street"}, "city": "Fermoy", "state": "Fingal", "country": "Ireland", "postcode": 79365, "coordinates": {"latitude": "-10.8611", "longitude": "12.7414"}, "timezone": {"offset": "-11:00", "description": "Midway Island, Samoa"}}, {"street": {"number": 9868, "name": "Victoria Road"}, "city": "Armagh", "state": "Avon", "country": "United Kingdom", "postcode": "M32 4WW", "coordinates": {"latitude": "5.9601", "longitude": "76.3642"}, "timezone": {"offset": "+5:45", "description": "Kathmandu"}}, {"street": {"number": 8778, "name": "Agertoften"}, "city": "Lemvig", "state": "Nordjylland", "country": "Denmark", "postcode": 68595, "coordinates": {"latitude": "-23.0736", "longitude": "26.1721"}, "timezone": {"offset": "-2:00", "description": "Mid-Atlantic"}}, {"street": {"number": 8980, "name": "Rua Onze "}, "city": "Cachoeirinha", "state": "Rio Grande do Sul", "country": "Brazil", "postcode": 32489, "coordinates": {"latitude": "-84.9086", "longitude": "31.7024"}, "timezone": {"offset": "+5:00", "description": "Ekaterinburg, Islamabad, Karachi, Tashkent"}}, {"street": {"number": 8812, "name": "Rue Dumenge"}, "city": "Obergerlafingen", "state": "Schwyz", "country": "Switzerland", "postcode": 5227, "coordinates": {"latitude": "-24.0662", "longitude": "-162.2317"}, "timezone": {"offset": "-10:00", "description": "Hawaii"}}, {"street": {"number": 3509, "name": "Westmoreland Street"}, "city": "Ennis", "state": "Galway", "country": "Ireland", "postcode": 85410, "coordinates": {"latitude": "-88.8358", "longitude": "134.5728"}, "timezone": {"offset": "-11:00", "description": "Midway Island, Samoa"}}, {"street": {"number": 3531, "name": "Rosenweg"}, "city": "Augustusburg", "state": "Th\u00fcringen", "country": "Germany", "postcode": 43038, "coordinates": {"latitude": "-15.8207", "longitude": "131.0823"}, "timezone": {"offset": "-3:00", "description": "Brazil, Buenos Aires, Georgetown"}}, {"street": {"number": 4202, "name": "The Drive"}, "city": "Maynooth", "state": "Wexford", "country": "Ireland", "postcode": 84824, "coordinates": {"latitude": "3.0819", "longitude": "51.7223"}, "timezone": {"offset": "+1:00", "description": "Brussels, Copenhagen, Madrid, Paris"}}, {"street": {"number": 3195, "name": "Feldstra\u00dfe"}, "city": "Arneburg", "state": "Mecklenburg-Vorpommern", "country": "Germany", "postcode": 63971, "coordinates": {"latitude": "48.8270", "longitude": "57.0666"}, "timezone": {"offset": "-8:00", "description": "Pacific Time (US & Canada)"}}, {"street": {"number": 7836, "name": "Klemetsrudveien"}, "city": "Hommers\u00e5k", "state": "Finnmark - Finnm\u00e1rku", "country": "Norway", "postcode": "3602", "coordinates": {"latitude": "38.4995", "longitude": "-52.9819"}, "timezone": {"offset": "+8:00", "description": "Beijing, Perth, Singapore, Hong Kong"}}, {"street": {"number": 2104, "name": "De Haflinger"}, "city": "Pijnacker", "state": "Zuid-Holland", "country": "Netherlands", "postcode": "0778 QK", "coordinates": {"latitude": "-65.1679", "longitude": "-60.3280"}, "timezone": {"offset": "-3:00", "description": "Brazil, Buenos Aires, Georgetown"}}, {"street": {"number": 994, "name": "\u0634\u0647\u06cc\u062f \u0628\u0627\u0647\u0646\u0631"}, "city": "\u0628\u0646\u062f\u0631\u0639\u0628\u0627\u0633", "state": "\u0622\u0630\u0631\u0628\u0627\u06cc\u062c\u0627\u0646 \u0634\u0631\u0642\u06cc", "country": "Iran", "postcode": 86733, "coordinates": {"latitude": "65.5538", "longitude": "-0.0013"}, "timezone": {"offset": "+2:00", "description": "Kaliningrad, South Africa"}}, {"street": {"number": 4602, "name": "Fredrikinkatu"}, "city": "Sottunga", "state": "North Karelia", "country": "Finland", "postcode": 57584, "coordinates": {"latitude": "-23.5759", "longitude": "13.4430"}, "timezone": {"offset": "-3:00", "description": "Brazil, Buenos Aires, Georgetown"}}, {"street": {"number": 3209, "name": "Church Road"}, "city": "Durham", "state": "Cleveland", "country": "United Kingdom", "postcode": "HG6 3YN", "coordinates": {"latitude": "-55.3079", "longitude": "-172.2178"}, "timezone": {"offset": "+5:45", "description": "Kathmandu"}}, {"street": {"number": 8805, "name": "Kalkbranderstraat"}, "city": "Oudemolen Nb", "state": "Noord-Holland", "country": "Netherlands", "postcode": "7384 II", "coordinates": {"latitude": "-18.3762", "longitude": "-142.4310"}, "timezone": {"offset": "-3:30", "description": "Newfoundland"}}, {"street": {"number": 5891, "name": "Linwood Avenue"}, "city": "Lower Hutt", "state": "Hawke'S Bay", "country": "New Zealand", "postcode": 23866, "coordinates": {"latitude": "-74.9329", "longitude": "6.2215"}, "timezone": {"offset": "+8:00", "description": "Beijing, Perth, Singapore, Hong Kong"}}, {"street": {"number": 4768, "name": "De Iperen Poarte"}, "city": "Anna Paulowna", "state": "Groningen", "country": "Netherlands", "postcode": "9564 MV", "coordinates": {"latitude": "15.2598", "longitude": "135.7393"}, "timezone": {"offset": "+8:00", "description": "Beijing, Perth, Singapore, Hong Kong"}}, {"street": {"number": 170, "name": "Rue Desaix"}, "city": "Airolo", "state": "St. Gallen", "country": "Switzerland", "postcode": 9718, "coordinates": {"latitude": "85.4134", "longitude": "93.3117"}, "timezone": {"offset": "+4:30", "description": "Kabul"}}, {"street": {"number": 8843, "name": "South Road"}, "city": "Nelson", "state": "Northland", "country": "New Zealand", "postcode": 84604, "coordinates": {"latitude": "-0.7825", "longitude": "-131.4529"}, "timezone": {"offset": "+7:00", "description": "Bangkok, Hanoi, Jakarta"}}, {"street": {"number": 1659, "name": "Fergusson Drive"}, "city": "Whanganui", "state": "Marlborough", "country": "New Zealand", "postcode": 62189, "coordinates": {"latitude": "-64.6508", "longitude": "69.1129"}, "timezone": {"offset": "+5:45", "description": "Kathmandu"}}, {"street": {"number": 3967, "name": "Mt Albert Road"}, "city": "Nelson", "state": "Hawke'S Bay", "country": "New Zealand", "postcode": 60530, "coordinates": {"latitude": "-87.5106", "longitude": "-78.5573"}, "timezone": {"offset": "-3:30", "description": "Newfoundland"}}, {"street": {"number": 7871, "name": "K\u00f6nigsberger Stra\u00dfe"}, "city": "Horstmar", "state": "Brandenburg", "country": "Germany", "postcode": 25699, "coordinates": {"latitude": "-3.3064", "longitude": "-111.4758"}, "timezone": {"offset": "-5:00", "description": "Eastern Time (US & Canada), Bogota, Lima"}}, {"street": {"number": 287, "name": "Fatih Sultan Mehmet Cd"}, "city": "Adana", "state": "Bal\u0131kesir", "country": "Turkey", "postcode": 24336, "coordinates": {"latitude": "2.2673", "longitude": "-157.1077"}, "timezone": {"offset": "-10:00", "description": "Hawaii"}}, {"street": {"number": 5142, "name": "Parker Rd"}, "city": "North Las Vegas", "state": "Arkansas", "country": "United States", "postcode": 42520, "coordinates": {"latitude": "-84.2236", "longitude": "-15.7482"}, "timezone": {"offset": "+5:00", "description": "Ekaterinburg, Islamabad, Karachi, Tashkent"}}, {"street": {"number": 6124, "name": "Starih Ratnika"}, "city": "Ljubovija", "state": "Kosovo", "country": "Serbia", "postcode": 51623, "coordinates": {"latitude": "-5.4454", "longitude": "-162.5308"}, "timezone": {"offset": "-7:00", "description": "Mountain Time (US & Canada)"}}, {"street": {"number": 4978, "name": "Avenida da Legalidade"}, "city": "Palmas", "state": "Piau\u00ed", "country": "Brazil", "postcode": 71616, "coordinates": {"latitude": "-89.7689", "longitude": "-40.1711"}, "timezone": {"offset": "+1:00", "description": "Brussels, Copenhagen, Madrid, Paris"}}, {"street": {"number": 8124, "name": "\u0634\u0647\u06cc\u062f \u062f\u06a9\u062a\u0631 \u0622\u06cc\u062a"}, "city": "\u062a\u0628\u0631\u06cc\u0632", "state": "\u0627\u0631\u062f\u0628\u06cc\u0644", "country": "Iran", "postcode": 63086, "coordinates": {"latitude": "85.6715", "longitude": "-37.1208"}, "timezone": {"offset": "-8:00", "description": "Pacific Time (US & Canada)"}}, {"street": {"number": 1820, "name": "Green Lane"}, "city": "Bath", "state": "Somerset", "country": "United Kingdom", "postcode": "W72 4FZ", "coordinates": {"latitude": "14.3693", "longitude": "19.1881"}, "timezone": {"offset": "-3:00", "description": "Brazil, Buenos Aires, Georgetown"}}, {"street": {"number": 1581, "name": "Ivana Fedorova"}, "city": "Vinogradiv", "state": "Volinska", "country": "Ukraine", "postcode": 95935, "coordinates": {"latitude": "71.2411", "longitude": "107.1322"}, "timezone": {"offset": "-1:00", "description": "Azores, Cape Verde Islands"}}, {"street": {"number": 9293, "name": "Kushimoto Sk"}, "city": "\u0130stanbul", "state": "K\u00fctahya", "country": "Turkey", "postcode": 47980, "coordinates": {"latitude": "-4.0452", "longitude": "151.4928"}, "timezone": {"offset": "-3:00", "description": "Brazil, Buenos Aires, Georgetown"}}, {"street": {"number": 4266, "name": "Calle de Arturo Soria"}, "city": "Torrevieja", "state": "Melilla", "country": "Spain", "postcode": 95215, "coordinates": {"latitude": "-39.4758", "longitude": "156.5811"}, "timezone": {"offset": "+10:00", "description": "Eastern Australia, Guam, Vladivostok"}}, {"street": {"number": 2710, "name": "Carter Rd Promenade"}, "city": "Uluberia", "state": "Andhra Pradesh", "country": "India", "postcode": 94619, "coordinates": {"latitude": "75.9343", "longitude": "-51.5501"}, "timezone": {"offset": "-3:00", "description": "Brazil, Buenos Aires, Georgetown"}}, {"street": {"number": 6156, "name": "Esplanade du 9 Novembre 1989"}, "city": "Grenchen", "state": "Obwalden", "country": "Switzerland", "postcode": 5716, "coordinates": {"latitude": "76.2573", "longitude": "-172.6971"}, "timezone": {"offset": "+2:00", "description": "Kaliningrad, South Africa"}}, {"street": {"number": 3645, "name": "Rua Quatro"}, "city": "Francisco Morato", "state": "Rond\u00f4nia", "country": "Brazil", "postcode": 66687, "coordinates": {"latitude": "-41.1781", "longitude": "87.0087"}, "timezone": {"offset": "+5:30", "description": "Bombay, Calcutta, Madras, New Delhi"}}, {"street": {"number": 3240, "name": "Andersons Bay Road"}, "city": "Porirua", "state": "Southland", "country": "New Zealand", "postcode": 17190, "coordinates": {"latitude": "58.3632", "longitude": "161.1526"}, "timezone": {"offset": "-3:30", "description": "Newfoundland"}}, {"street": {"number": 6602, "name": "Calle de La Almudena"}, "city": "Guadalajara", "state": "Galicia", "country": "Spain", "postcode": 41406, "coordinates": {"latitude": "-77.7730", "longitude": "16.6022"}, "timezone": {"offset": "+7:00", "description": "Bangkok, Hanoi, Jakarta"}}, {"street": {"number": 9838, "name": "Church Lane"}, "city": "City of London", "state": "Northumberland", "country": "United Kingdom", "postcode": "N2T 7JF", "coordinates": {"latitude": "-39.8956", "longitude": "-107.0910"}, "timezone": {"offset": "0:00", "description": "Western Europe Time, London, Lisbon, Casablanca"}}, {"street": {"number": 3947, "name": "Lake Road"}, "city": "Taupo", "state": "Tasman", "country": "New Zealand", "postcode": 33672, "coordinates": {"latitude": "34.6673", "longitude": "0.8493"}, "timezone": {"offset": "+4:00", "description": "Abu Dhabi, Muscat, Baku, Tbilisi"}}, {"street": {"number": 5746, "name": "Calle de La Luna"}, "city": "Cartagena", "state": "Islas Baleares", "country": "Spain", "postcode": 91249, "coordinates": {"latitude": "54.5200", "longitude": "87.8729"}, "timezone": {"offset": "-1:00", "description": "Azores, Cape Verde Islands"}}, {"street": {"number": 2248, "name": "Stevana Stevanovi\u0107a"}, "city": "Lebane", "state": "Pirot", "country": "Serbia", "postcode": 31516, "coordinates": {"latitude": "-77.1676", "longitude": "37.3281"}, "timezone": {"offset": "+1:00", "description": "Brussels, Copenhagen, Madrid, Paris"}}, {"street": {"number": 6702, "name": "Rue de Bonnel"}, "city": "Poitiers", "state": "Loire-Atlantique", "country": "France", "postcode": 48307, "coordinates": {"latitude": "-41.9828", "longitude": "-113.2651"}, "timezone": {"offset": "-5:00", "description": "Eastern Time (US & Canada), Bogota, Lima"}}, {"street": {"number": 1025, "name": "Place des 44 Enfants D'Izieu"}, "city": "Andiast", "state": "Schaffhausen", "country": "Switzerland", "postcode": 9779, "coordinates": {"latitude": "-2.6198", "longitude": "-111.2825"}, "timezone": {"offset": "+9:00", "description": "Tokyo, Seoul, Osaka, Sapporo, Yakutsk"}}, {"street": {"number": 972, "name": "M\u00fchlweg"}, "city": "Rutesheim", "state": "Th\u00fcringen", "country": "Germany", "postcode": 52714, "coordinates": {"latitude": "54.1497", "longitude": "-176.6296"}, "timezone": {"offset": "+5:30", "description": "Bombay, Calcutta, Madras, New Delhi"}}, {"street": {"number": 6388, "name": "Kneza Palalije"}, "city": "Bogati\u0107", "state": "Prizren", "country": "Serbia", "postcode": 62181, "coordinates": {"latitude": "32.7397", "longitude": "27.4637"}, "timezone": {"offset": "-7:00", "description": "Mountain Time (US & Canada)"}}, {"street": {"number": 3629, "name": "Anglesea Street"}, "city": "Whangarei", "state": "Bay of Plenty", "country": "New Zealand", "postcode": 14955, "coordinates": {"latitude": "87.7160", "longitude": "-47.8446"}, "timezone": {"offset": "+5:00", "description": "Ekaterinburg, Islamabad, Karachi, Tashkent"}}, {"street": {"number": 5113, "name": "Shady Ln Dr"}, "city": "Hervey Bay", "state": "New South Wales", "country": "Australia", "postcode": 5468, "coordinates": {"latitude": "63.7459", "longitude": "78.3674"}, "timezone": {"offset": "+5:45", "description": "Kathmandu"}}, {"street": {"number": 2132, "name": "Ampliaci\u00f3n Baja California"}, "city": "Zinaparo", "state": "Yucatan", "country": "Mexico", "postcode": 30372, "coordinates": {"latitude": "34.4248", "longitude": "-158.6566"}, "timezone": {"offset": "+9:00", "description": "Tokyo, Seoul, Osaka, Sapporo, Yakutsk"}}, {"street": {"number": 1855, "name": "Victoria Road"}, "city": "Winchester", "state": "Greater Manchester", "country": "United Kingdom", "postcode": "G2H 8TB", "coordinates": {"latitude": "63.9769", "longitude": "-32.1725"}, "timezone": {"offset": "+5:45", "description": "Kathmandu"}}, {"street": {"number": 1345, "name": "Lessingstra\u00dfe"}, "city": "Sigmaringen", "state": "Sachsen-Anhalt", "country": "Germany", "postcode": 88115, "coordinates": {"latitude": "84.6133", "longitude": "86.2953"}, "timezone": {"offset": "+1:00", "description": "Brussels, Copenhagen, Madrid, Paris"}}, {"street": {"number": 3677, "name": "Breslauer Stra\u00dfe"}, "city": "Erlenbach am Main", "state": "Berlin", "country": "Germany", "postcode": 52998, "coordinates": {"latitude": "-25.4376", "longitude": "110.8498"}, "timezone": {"offset": "-4:00", "description": "Atlantic Time (Canada), Caracas, La Paz"}}, {"street": {"number": 2389, "name": "Lichfield Street"}, "city": "Gisborne", "state": "Tasman", "country": "New Zealand", "postcode": 10648, "coordinates": {"latitude": "-63.6673", "longitude": "-81.6057"}, "timezone": {"offset": "-4:00", "description": "Atlantic Time (Canada), Caracas, La Paz"}}, {"street": {"number": 1575, "name": "Avenida del Planetario"}, "city": "Zaragoza", "state": "Asturias", "country": "Spain", "postcode": 38390, "coordinates": {"latitude": "-86.0598", "longitude": "-50.6295"}, "timezone": {"offset": "+10:00", "description": "Eastern Australia, Guam, Vladivostok"}}, {"street": {"number": 5257, "name": "Rochestown Road"}, "city": "Celbridge", "state": "Galway", "country": "Ireland", "postcode": 98050, "coordinates": {"latitude": "-61.8209", "longitude": "-47.9555"}, "timezone": {"offset": "-9:00", "description": "Alaska"}}, {"street": {"number": 3240, "name": "Vellala St"}, "city": "Ongole", "state": "Maharashtra", "country": "India", "postcode": 89549, "coordinates": {"latitude": "-76.4584", "longitude": "145.5010"}, "timezone": {"offset": "+5:30", "description": "Bombay, Calcutta, Madras, New Delhi"}}]